{
  "info": {
    "categories": [
      {
        "ID":1,
        "name": "campustour",
        "title": "Campus Tour",
        "text": "A campus tour is now available online!",
        "icon": "tour.png",
        "type": "object"
      },
      {
        "ID": 2,
        "name": "buildings",
        "title": "Buildings",
        "text": "Located on the 430-acre campus are numerous buildings designed to meet the diverse needs of the students and employees. While building names often remind of historic legacy, the structures are modern facilities that reflect the wholesome academic, cultural, social and spiritual environment of BYU-Idaho.",
        "icon": "building.png",
        "type": "object"
      },
      {
        "ID": 3,
        "name": "parking",
        "title": "Parking",
        "text": "Parking Areas are plotted according to the following key. Parking passes will be required as indicated.",
        "icon": "parking.png",
        "type": "polygon",
        "url": "parking.kml"
      },
      {
        "ID": 4,
        "name": "foodanddining",
        "title": "Food & Dining",
        "text": "Food & Dining descriptive text goes here.",
        "icon": "dining.png",
        "type": "object"
      },
      {
        "ID": 5,
        "name": "vending",
        "title": "Vending Machines",
        "text": "Vending machines descriptive text goes here.",
        "icon": "restaurant.png",
        "type": "object"
      },
      {
        "ID": 6,
        "name": "playfields",
        "title": "Playfields",
        "text": "Recreational areas often scheduled for Student Activities.",
        "icon": "sports_default.png",
        "type": "object"
      },
      {
        "ID":7,
        "name": "webcams",
        "title": "Webcams",
        "text": "Campus webcams",
        "icon": "camera.png",
        "type": "object"
      }
    ]
  },
  "dataObjects": {
    "campustour": [
      {
        "name": "Introduction",
        "code": "INTRODUCTION",
        "lat": 43.811265,
        "lon": -111.786779,
        "video": "01-intro",
        "info": "Campus tours introduction",
        "link": "http://www2.byui.edu/PR/webtour/"
      },
      {
        "name": "Campus History",
        "code": "CAMPUSHISTORY",
        "lat": 43.811265,
        "lon": -111.786779,
        "video": "02-campus_history",
        "info": "Campus History",
        "link": "http://www2.byui.edu/PR/webtour/"
      },
      {
        "name": "Jacob Spori Building",
        "code": "SPORI",
        "lat": 43.811265,
        "lon": -111.786779,
        "video": "03-jacobspori",
        "info": "Jacob Spori Building",
        "link": "http://www2.byui.edu/PR/webtour/"
      },
      {
        "name": "Eliza R. Snow Center for the Performing Arts",
        "code": "SNOW",
        "lat": 43.811265,
        "lon": -111.786779,
        "video": "04-snow",
        "info": "Eliza R. Snow Center for the Performing Arts",
        "link": "http://www2.byui.edu/PR/webtour/"
      },
      {
        "name": "Oscar A. Kirkham Building",
        "code": "KIRKHAM",
        "lat": 43.811265,
        "lon": -111.786779,
        "video": "05-kirkham",
        "info": "Oscar A. Kirkham Building",
        "link": "http://www2.byui.edu/PR/webtour/"
      },
      {
        "name": "George S. Romney Science Building",
        "code": "ROMNEY",
        "lat": 43.811265,
        "lon": -111.786779,
        "video": "06-romney",
        "info": "George S. Romney Science Building",
        "link": "http://www2.byui.edu/PR/webtour/"
      }
    ],
    "buildings": [
      {
        "name": "AGM - Ag. Engineering Bldg.",
        "code": "AGM",
        "lat":  43.813304,
        "lon": -111.783140,
        "img": "AGM-AgEngineeringBldg.jpg",
        "info": "Lab area for Department of Agribusiness, Plant & Animal Science.",
        "link": "http://www.byui.edu/agriculture/"
      },
      {
        "name": "ASB - Auxiliary Services Bldg.",
        "code": "ASB",
        "lat":  43.814100,
        "lon": -111.783147,
        "img": "ASB-AuxiliaryServicesBldg.jpg",
        "info": "Division of Continuing Education, University Press, a Copy Spot, the university's central warehouse, purchasing and travel offices.",
        "link": "http://www.byui.edu/agriculture/"
      },
      {
        "name": "AUS - Mark Austin Technical & Engineering Bldg.",
        "code": "AUS",
        "lat":  43.815756,
        "lon": -111.784646,
        "img": "AUS-MarkAustinTechnicalEngineeringBldg.jpg",
        "info": "Department of Architecture & Construction, Department of Automotive Technology, Department of Computer Science and Engineering, and Department of Mechanical Engineering.",
        "link": "http://www.byui.edu/agriculture/"
      },
      {
        "name": "BCTR - BYU-Idaho Center",
        "code": "BCTR",
        "lat":  43.818514,
        "lon": -111.785046,
        "info": "The 435,000-square-foot building, containing a 15,000-seat auditorium and a multi-purpose area large enough for 10 full basketball courts, opened following a dedication on Dec. 17, 2010.",
        "link": "http://www.byui.edu/agriculture/"
      },
      {
        "name": "BEN - Ezra Taft Benson Agricultural & Biological Sciences Bldg.",
        "code": "BEN",
        "lat":  43.815441,
        "lon": -111.783076,
        "img": "BEN-EzraTaftBensonAgriculturalBiologicalSciencesBldg.jpg",
        "info": "Department of Biology, Department of Horticulture, laboratories, greenhouses, horticulture outlet for studio flowers and plant sales, and the Wildlife Museum.",
        "link": "http://www.byui.edu/agriculture/"
      },
      {
        "name": "BID - Biddulph Hall (men)",
        "code": "BID",
        "lat":  43.817054,
        "lon": -111.785123,
        "img": "BID-BiddulphHallmen.jpg",
        "info": "Men's housing.",
        "link": "http://www.byui.edu/agriculture/"
      },
      {
        "name": "BRN - Barnes Hall (women)",
        "code": "BRN",
        "lat":  43.819171,
        "lon": -111.778768,
        "img": "BRN-BarnesHallwomen.jpg",
        "info": "Women's housing.",
        "link": "http://www.byui.edu/agriculture/"
      },
      {
        "name": "CHP - Chapman Hall (men)",
        "code": "CHP",
        "lat":  43.818202,
        "lon":  -111.780259,
        "img": "CHP-ChapmanHallmen.jpg",
        "info": "Men's housing.",
        "link": "http://www.byui.edu/agriculture/"
      },
      {
        "name": "CLK - John L. Clarke Bldg.",
        "code": "CLK",
        "lat":  43.820179,
        "lon":  -111.781751,
        "img": "CLK-JohnLClarkeBldg.jpg",
        "info": "Department of Health Science, Department of Interior Design, Department of Nursing, Department of Home and Family, preschool for the child development program, Testing Services.",
        "link": "http://www.byui.edu/agriculture/"
      },
      {
        "name": "CML - Construction Management Lab",
        "code": "CML",
        "lat":  43.815239,
        "lon":  -111.787772,
        "info": "Lab area for Department of Department of Architecture and Construction.",
        "link": "http://www.byui.edu/agriculture/"
      },
      {
        "name": "HIN - Gordon B. Hinckley Bldg.",
        "code": "HIN",
        "lat":  43.815841,
        "lon":  -111.779900,
        "img": "HIN-GordonBHinckleyBldg.jpg",
        "info": "Department of Teacher Education, faculty offices, Institute classes, and a stake center.",
        "link": "http://www.byui.edu/agriculture/"
      },
      {
        "name": "HRT - John W. Hart Physical Education Bldg.",
        "code": "HRT",
        "lat":  43.819535,
        "lon": -111.785311,
        "img": "HRT-JohnWHartPhysicalEducationBldg.jpg",
        "info": "Department of Exercise & Sports Science, Main Gymnasium/Hart Auditorium, Auxiliary Gym, field house, swimming pool, racquetball courts, dressing rooms, physical fitness and wellness centers.",
        "link": "http://www.byui.edu/agriculture/"
      },
      {
        "name": "HTG - Heating Plant",
        "code": "HTG",
        "lat":  43.817298,
        "lon":  -111.786003,
        "img": "HTG-HeatingPlant.jpg",
        "info": "BYU-Idaho support facility for heating and hot water.",
        "link": "http://www.byui.edu/agriculture/"
      },
      {
        "name": "KER - Kerr Hall (women)",
        "code": "KER",
        "lat":  43.819258,
        "lon":  -111.779575,
        "img": "KER-KerrHallwomen.jpg",
        "info": "Women's housing.",
        "link": "http://www.byui.edu/agriculture/"
      },
      {
        "name": "KIM - Spencer W. Kimball Student & Admin. Services Bldg.",
        "code": "KIM",
        "lat":  43.817071,
        "lon":  -111.781492,
        "img": "KIM-SpencerWKimballStudentAdminServicesBldg.jpg",
        "info": "Academic Administrative Services, Accounting Office, Admissions Office, Alumni Office, Career & Academic Advising, Cashier and Ticket Services, Dean of Students Office, Executive Offices, Financial Services, Housing Office, Human Resources, International Services, Internship and Career Services, Police, Registrar & Records Office, Scholarships Office, Student Honor Office, and University Relations Office.",
        "link": "http://www.byui.edu/agriculture/"
      },
      {
        "name": "KRK - Oscar A. Kirkham Bldg.",
        "code": "KRK",
        "lat":  43.821114,
        "lon":  -111.781479,
        "img": "KRK-OscarAKirkhamBldg.jpg",
        "info": "Department of Dance, Kirkham Auditorium, Arena Theater, and ceramics and sculpture studios.",
        "link": "http://www.byui.edu/agriculture/"
      },
      {
        "name": "LAM - Lamprecht Hall",
        "code": "LAM",
        "lat":  43.818234,
        "lon":  -111.779517,
        "img": "LAM-LamprechtHallwomen.jpg",
        "info": "Women's housing.",
        "link": "http://www.byui.edu/agriculture/"
      },
      {
        "name": "MC  - Hyrum Manwaring Student Center",
        "code": "MC",
        "lat":  43.818356,
        "lon":  -111.782436,
        "info": "Bookstore, Food Services and catering office, bowling alley, ballrooms, the ID Center, Lost and Found, and Scheduling Office.",
        "link": "http://www.byui.edu/agriculture/"
      },
      {
        "name": "MCK - David O. McKay Library",
        "code": "MCK",
        "lat":  43.819310,
        "lon":  -111.783182,
        "img": "MCK-DavidOMcKayLibrary.jpg",
        "info": "Department of Academic Learning, book collection, e-book collection, periodicals, computers labs, Family History Center,  archives, a Copy Spot, a special exhibition area, instructional technology labs, equipment checkout and rental, and a self-serve recording room.",
        "link": "http://www.byui.edu/agriculture/"
      },
      {
        "name": "PER - Perkins Hall (women)",
        "code": "PER",
        "lat":  43.819253,
        "lon":  -111.780264,
        "img": "PER-PerkinsHallwomen.jpg",
        "info": "Women's housing.",
        "link": "http://www.byui.edu/agriculture/"
      },
      {
        "name": "PPG - Physical Plant Grounds Construction & Sign Shop",
        "code": "PPG",
        "lat":  43.815277,
        "lon":  -111.786379,
        "img": "PPG-PhysicalPlantGroundsConstructionSignShop.jpg",
        "info": "BYU-Idaho support facility for landscaping, ground maintenance and signage.",
        "link": "http://www.byui.edu/agriculture/"
      },
      {
        "name": "PPO - Physical Plant Office Bldg.",
        "code": "PPO",
        "lat": 43.81605433714605,
        "lon": -111.7853369234744,
        "info": "Physical Facilities Office and administrative offices for buildings and grounds, custodial, media services, telecommunications, safety, and support services.",
        "link": "http://www.byui.edu/agriculture/"
      },
      {
        "name": "PPS - Physical Plant Shop Bldg.",
        "code": "PPS",
        "lat": 43.81594597634651,
        "lon": -111.7859443479993,
        "info": "Central shops for carpentry; electrical; fleet services; heating, ventilation, and air conditioning; locks and keys; and plumbing and mechanical operations.",
        "link": "http://www.byui.edu/agriculture/"
      },
      {
        "name": "PWS - Plumbing & Welding Shop",
        "code": "PWS",
        "lat":  43.81526579736887,
        "lon":  -111.7853107728127,
        "info": "Central shop for plumbing and welding services.",
        "link": "http://www.byui.edu/agriculture/"
      },
      {
        "name": "RGS - Radio and Graphic Services Bldg.",
        "code": "RGS",
        "lat":  43.81706519459516,
        "lon":  -111.7789434430949,
        "img": "RGS-RadioandGraphicServicesBldg.jpg",
        "info": "University Communications, KBYI FM 100.5, KBYR 91.5, Creative Services (graphic design and photography).",
        "link": "http://www.byui.edu/agriculture/"
      },
      {
        "name": "RIC - Ricks Hall (women)",
        "code": "RIC",
        "lat":  43.81812607978744,
        "lon":  -111.778914594058,
        "img": "RIC-RicksHallwomen.jpg",
        "info": "Women's housing.",
        "link": "http://www.byui.edu/agriculture/"
      },
      {
        "name": "RIG - Rigby Hall (faculty offices)",
        "code": "RIG",
        "lat":  43.81696924342953,
        "lon":  -111.7841900066221,
        "img": "RIG-RigbyHallfacultyoffices.jpg",
        "info": "Faculty offices, Student Orientation Office.",
        "link": "http://www.byui.edu/agriculture/"
      },
      {
        "name": "RKS - Thomas E. Ricks Bldg.",
        "code": "RKS",
        "lat":  43.81514466531412,
        "lon": -111.7812015011548,
        "img": "RKS-ThomasERicksBldg.jpg",
        "info": "Department of History, Geography and Political Science; Department of Mathematics; Department of Psychology; and Department of Sociology and Social Work.",
        "link": "http://www.byui.edu/agriculture/"
      },
      {
        "name": "ROM - George S. Romney Bldg.",
        "code": "ROM",
        "lat":  43.81943529937006,
        "lon":  -111.7832273352486,
        "img": "ROM-GeorgeSRomneyBldg.jpg",
        "info": "Department of Chemistry, Department of Geology, Department of Recreation Leadership, Department of Physics, the planetarium, hall displays, and the Geology Museum.",
        "link": "http://www.byui.edu/agriculture/"
      },
      {
        "name": "SHC - Student Health & Counseling Center",
        "code": "SHC",
        "lat":  43.81681618820919,
        "lon":  -111.7792542421602,
        "img": "SHC-StudentHealthCounselingCenter.jpg",
        "info": "Student Health Center (pharmacy, laboratory, x-ray and orthopedic services), Student Counseling Center (individual, group, and marital counseling).",
        "link": "http://www.byui.edu/agriculture/"
      },
      {
        "name": "SMI - Joseph Fielding Smith Bldg.",
        "code": "SMI",
        "lat": 43.81920193746524,
        "lon": -111.7815120835109,
        "img": "SMI-JosephFieldingSmithBldg.jpg",
        "info": "Department of Accounting, Department of Business Management, Department of Economics, Department of Computer Information Technology, Department of Foreign Languages & Literatures, Online Testing Center.",
        "link": "http://www.byui.edu/agriculture/"
      },
      {
        "name": "SNO - Eliza R. Snow Performing Arts Center",
        "code": "SNO",
        "lat":  43.82040568861844,
        "lon":  -111.7834341454015,
        "img": "SNO-ElizaRSnowPerformingArtsCenter.jpg",
        "info": "Department of Music, Department of Theatre, Barrus Concert Hall, Recital Hall, Snow Drama Theater, Blackbox Theatre, and costume shop.",
        "link": "http://www.byui.edu/agriculture/"
      },
      {
        "name": "SPO - Jacob Spori Bldg.",
        "code": "SPO",
        "lat": 43.82013049760194,
        "lon": -111.7814491412516,
        "img": "SPO-JacobSporiBldg.jpg",
        "info": "Department of Communication, Department of Art, art galleries, and artifacts from original Spori Building.",
        "link": "http://www.byui.edu/agriculture/"
      },
      {
        "name": "STA - BYU-Idaho Stadium",
        "code": "STA",
        "lat": 43.8203142379387,
        "lon": -111.7858582214964,
        "img": "STA-BYU-IdahoStadium.jpg",
        "info": "Location of the Outdoor Resource Center. Equipment rentals and retail sales.",
        "link": "http://www.byui.edu/agriculture/"
      },
      {
        "name": "TAY - John Taylor Bldg.",
        "code": "TAY",
        "lat":  43.81705797643297,
        "lon":  -111.7811963030408,
        "info": "Department of Religious Education, Department of Humanities & Philosophy, campus stake center, student commons area.",
        "link": "http://www.byui.edu/agriculture/"
      },
      {
        "name": "TRK - BYU-I Track & Field",
        "code": "TRK",
        "lat": 43.82062309752545,
        "lon": -111.7844109782628,
        "img": "BYU-IdahoTrack.jpg",
        "info": "A horticulture research area, picnic structure, reception area, test gardens, fruit tree orchard, flowerbeds, and a native garden.",
        "link": "http://www.byui.edu/agriculture/"
      },
      {
        "name": "TRG - Thomas E. Ricks Memorial Gardens",
        "code": "TRG",
        "lat": 43.81582205080509,
        "lon": -111.7815419421354,
        "img": "TRG-ThomasERicksMemorialGardens.jpg",
        "info": "A horticulture research area, picnic structure, reception area, test gardens, fruit tree orchard, flowerbeds, and a native garden.",
        "link": "http://www.byui.edu/agriculture/"
      },
      {
        "name": "UV  - University Village (families)",
        "code": "UV",
        "lat": 43.81043018645631,
        "lon": -111.7880177484073,
        "info": "Family housing.",
        "link": "http://www.byui.edu/agriculture/"
      },
      {
        "name": "VOS - Vehicle Operations Service Station",
        "code": "VOS",
        "lat": 43.81528245659366,
        "lon": -111.7859468775369,
        "info": "Support area for the university's fleet services.",
        "link": "http://www.byui.edu/agriculture/"
      },
      {
        "name": "University Stake Center",
        "code": "UniversityStakeCenter",
        "lat": 43.81091259491949,
        "lon": -111.7810747356341,
        "info": "Meetinghouse for The Church of Jesus Christ of Latter-day Saints.",
        "link": "http://www.byui.edu/agriculture/"
      },
      {
        "name": "Rexburg Temple",
        "code": "RexburgTemple",
        "lat": 43.810832416805,
        "lon": -111.7784921749187,
        "info": "Owned and operated by The Church of Jesus Christ of Latter-day Saints.",
        "link": "http://www.byui.edu/agriculture/"
      }
    ],
    "parking": [
      {
        "name":         "City Resident Street Parking",
        "contains":     "Street residential areas",
        "borderColor":  "#32e21b",
        "fillColor":    "#98f08d"
      },
      {
        "name":         "City Street Parking",
        "contains":     "Street Munipical Areas",
        "borderColor":  "#fd25a2",
        "fillColor":    "#fe92d0"
      },
      {
        "name":         "Faculty & Staff Parking",
        "contains":     "Parking for Faculty & Staff",
        "borderColor":  "#f51515",
        "fillColor":    "#fa8a8a"
      },
      {
        "name":         "Student North Pass",
        "contains":     "Parking for students with a North Parking Pass",
        "borderColor":  "#1652de",
        "fillColor":    "#8aa8ee"
      },
      {
        "name":         "Visitor & Handicap",
        "contains":     "Parking for visitors & handicap parking permits",
        "borderColor":  "#f5ff02",
        "fillColor":    "#faff80"
      },
      {
        "name":         "West Campus Drive",
        "contains":     "Parking on West Campus Drive",
        "borderColor":  "#2aa1ef",
        "fillColor":    "#94d0f7"
      }
    ],
    "foodanddining": [
      {
        "name": "Crossroads",
        "code": "1",
        "lat":  43.81903274177699,
        "lon": -111.778850821976,
        "info": "A lot of food here."
      }
    ],
    "vending": [
      {
        "name": "Combo - BRN",
        "code": "1",
        "lat":  43.81903274177699,
        "lon": -111.778850821976,
        "info": "2nd floor lounge, above laundry room.<br/>Combo Machine."
      },
      {
        "name": "Combo - KER",
        "code": "2",
        "lat":  43.81907857414526,
        "lon": -111.77954226089,
        "info": "1st floor laundry room.<br/>Combo."
      },
      {
        "name": "Drinks - BID",
        "code": "3",
        "lat":  43.81708528609551,
        "lon": -111.7851676792425,
        "info": "1st floor lounge.<br/>Drinks. Other machines nearby with food and snacks."
      },
      {
        "name": "Drinks - CHP",
        "code": "4",
        "lat":  43.81800009170572,
        "lon": -111.7803323290123,
        "info": "1st floor laundry room.<br/>Drinks. Nearby machines provide food and snacks."
      },
      {
        "name": "Drinks - CLK",
        "code": "5",
        "lat":  43.820303,
        "lon": -111.781949,
        "info": "1st floor entryway.<br/>Drinks. Nearby machines provide snacks and food."
      },
      {
        "name": "Drinks - KIM",
        "code": "6",
        "lat":  43.81693401824815,
        "lon": -111.7813540546474,
        "info": "1st floor entryway.<br/>Drinks. Nearby machines provide snacks and food."
      },
      {
        "name": "Food - BID",
        "code": "7",
        "lat":  43.81709848501499,
        "lon": -111.7851941283088,
        "info": "1st floor entryway.<br/>Drinks. Nearby machines provide snacks and food."
      },
      {
        "name": "Food - BCTR",
        "code": "8",
        "lat":  43.81801134364651,
        "lon": -111.7848386836669,
        "info": "1st floor (court level), side room.<br/>Food. Other machines nearby include Snacks."
      },
      {
        "name": "Food - CHP",
        "code": "9",
        "lat":  43.81797618830873,
        "lon": -111.780358984969,
        "info": "1st floor laundry room.<br/>Food. Nearby machines include snacks and drinks."
      },
      {
        "name": "Food - CLK",
        "code": "10",
        "lat":  43.82031095304359,
        "lon": -111.7819731471874,
        "info": "1st floor entryway.<br/>Food. Nearby machines include snacks and drinks."
      },
      {
        "name": "Food - HIN",
        "code": "11",
        "lat":  43.81611,
        "lon": -111.779708,
        "info": "2nd floor, gym level, adjoining North-East entryway.<br/>Food. Nearby machine serves snacks."
      },
      {
        "name": "Food - KIM",
        "code": "12",
        "lat":  43.81693290566433,
        "lon": -111.781373104311,
        "info": "1st floor entryway.<br/>Food. Nearby machines provide snacks and drinks."
      },
      {
        "name": "Snacks - AGB",
        "code": "13",
        "lat":  43.81306032643038,
        "lon": -111.7833001800025,
        "info": "Main floor lobby area.<br/>Two snack machines."
      },
      {
        "name": "Snacks - BCTR",
        "code": "14",
        "lat":  43.818022,
        "lon": -111.784842,
        "info": "1st floor (court level), side room.<br/>Snacks. Other machine nearby includes Food."
      },
      {
        "name": "Snacks - BID",
        "code": "15",
        "lat":  43.8170414380551,
        "lon": -111.7852682365325,
        "info": "1st floor lounge.<br/>Snacks. Other machines nearby with food, drinks, and snacks."
      },
      {
        "name": "Snacks - BEN",
        "code": "16",
        "lat":  43.815478,
        "lon": -111.783254,
        "info": "First floor hallway, near the central stairs.<br/>Snacks."
      },
      {
        "name": "Snacks - CHP",
        "code": "17",
        "lat":  43.81799551693868,
        "lon": -111.7803133722136,
        "info": "1st floor laundry room.<br/>Snacks. Nearby machines include food and drinks."
      },
      {
        "name": "Snacks - CLK",
        "code": "18",
        "lat":  43.820355,
        "lon": -111.782017,
        "info": "1st floor entryway.<br/>Snacks. Nearby machines provide food and drinks."
      },
      {
        "name": "Snacks - HIN",
        "code": "19",
        "lat":  43.816101,
        "lon": -111.779706,
        "info": "2nd floor, gym level, adjoining North-East entryway.<br/>Snacks. Nearby machine serves food."
      },
      {
        "name": "Snacks - KIM",
        "code": "20",
        "lat":  43.81693284853189,
        "lon": -111.7813921714127,
        "info": "1st floor entryway.<br/>Snacks. Nearby machines provide food and drinks."
      }
    ],
    "playfields": [
      {
        "name": "BBD - Baseball Diamond",
        "code": "1",
        "lat": 43.810832436805,
        "lon": -111.7784921739187,
        "info": "Recreational area often scheduled for Student Activities.",
        "link": "http://www.byui.edu/agriculture/"
      },
      {
        "name": "ESF - East Soccer Field",
        "code": "2",
        "lat": 43.810832416805,
        "lon": -111.7784931749187,
        "link": "http://www.byui.edu/agriculture/"
      },
      {
        "name": "LEP - Lower East Playfield",
        "code": "3",
        "lat": 43.810832416805,
        "lon": -111.7784921749137,
        "link": "http://www.byui.edu/agriculture/"
      },
      {
        "name": "LWP - Lower West Playfield",
        "code": "4",
        "lat": 43.810832416305,
        "lon": -111.7784921749187,
        "link": "http://www.byui.edu/agriculture/"
      },
      {
        "name": "STF - Stadium Track and Field",
        "code": "5",
        "lat": 43.810832416605,
        "lon": -111.7784921749186,
        "link": "http://www.byui.edu/agriculture/"
      },
      {
        "name": "SVC - Sand Volleyball Courts",
        "code": "6",
        "lat": 43.810832416835,
        "lon": -111.7784921739187,
        "link": "http://www.byui.edu/agriculture/"
      },
      {
        "name": "TCL - Tennis Courts, Lower",
        "code": "7",
        "lat": 43.810832416808,
        "lon": -111.7784921748187,
        "link": "http://www.byui.edu/agriculture/"
      },
      {
        "name": "TCU - Tennis Courts, Upper",
        "code": "8",
        "lat": 43.810832416895,
        "lon": -111.7784921749187,
        "link": "http://www.byui.edu/agriculture/"
      },
      {
        "name": "UP  - Upper Playfield",
        "code": "9",
        "lat": 43.810,
        "lon": -111.778,
        "img": "playfield.jpg",
        "link": "http://www.byui.edu/agriculture/"
      },
      {
        "name": "WSF - West Soccer Field",
        "code": "10",
        "lat": 43.810832416805,
        "lon": -111.7784921949187,
        "link": "http://www.byui.edu/agriculture/"
      },
      {
        "name": "7th South Activity Fields",
        "code": "11",
        "lat": 43.810832416809,
        "lon": -111.7784921749187,
        "link": "http://www.byui.edu/agriculture/"
      }
    ],
    "webcams": [
      {
        "name": "Copy Spot",
        "code": "COPYSPOT",
        "lat": 43.811265,
        "lon": -111.786779,
        "img": "http://www2.byui.edu/images/copyspot.asp",
        "info": "The Copy Spot is a place to print, bind, laminate and make copies.",
        "link": "http://www2.byui.edu/PR/webtour/"
      },
      {
        "name": "Thomas E. Ricks Gardens",
        "code": "RICKSGARDENS",
        "lat": 43.811265,
        "lon": -111.786779,
        "img": "http://www2.byui.edu/images/gardens.asp",
        "info": "The Thomas E. Ricks Gardens are located between the Thomas E. Ricks building and the Taylor Chapel (top right). They are named for the founder of the school and provide a peaceful atmosphere for students to relax between classes. This camera looks west into the gardens from the Gordon B. Hinckley Building. The gardens were dedicated on February 18, 2005 by Elder David A. Bednar, former President of BYU-Idaho. The gardens are an extension of the horticulture program.",
        "link": "http://www2.byui.edu/PR/webtour/"
      }
    ]
  }
}