{
  "info": {
    "categories": [
      {
        "ID": 1,
        "name": "buildings",
        "title": "Buildings",
        "text": "Located on the 430-acre campus are numerous buildings designed to meet the diverse needs of the students and employees. While building names often remind of historic legacy, the structures are modern facilities that reflect the wholesome academic, cultural, social and spiritual environment of BYU-Idaho.",
        "icon": "blue",
        "type": 0,
        "link": "http://www2.byui.edu/BldgsGrnds/"
      },
      {
        "ID": 2,
        "name": "parking",
        "title": "Parking",
        "text": "Parking Areas are plotted according to the following key. Parking passes will be required as indicated.",
        "icon": "dark-tan",
        "type": 1,
        "url": "parking.kml",
        "link": "http://www2.byui.edu/ParkingServices/"
      },
      {
        "ID": 3,
        "name": "foodanddining",
        "title": "Food & Dining",
        "text": "Food & Dining locations are operated by Food Services for your eating pleasure and convenience.",
        "icon": "rust",
        "type": 0,
        "link": "http://www.byui.edu/food-services"
      },
      {
        "ID": 4,
        "name": "vending",
        "title": "Vending Machines",
        "text": "Campus vending machines are operated by food services for your convenience.",
        "icon": "orange",
        "type": 0,
        "link": "http://www.byui.edu/food-services"
      },
      {
        "ID": 5,
        "name": "playfields",
        "title": "Playfields",
        "text": "Recreational areas often scheduled for Student Activities.",
        "icon": "green",
        "type": 0,
        "link": "http://www.byui.edu/activities"
      },
      {
        "ID":6,
        "name": "webcams",
        "title": "Webcams",
        "text": "Campus webcams",
        "icon": "purple",
        "type": 0,
        "link": "http://www2.byui.edu/WebCameras/"
      }
    ]
  },
  "dataObjects": {
    "buildings": [
      {
        "name": "AGM - Ag. Engineering Bldg.",
        "code": "AGM",
        "lat":  43.813304,
        "lon": -111.783140,
        "img": "AGM-AgEngineeringBldg.jpg",
        "info": "Lab area for Department of Agribusiness, Plant & Animal Science."
      },
      {
        "name": "ASB - Auxiliary Services Bldg.",
        "code": "ASB",
        "lat":  43.814100,
        "lon": -111.783147,
        "img": "ASB-AuxiliaryServicesBldg.jpg",
        "info": "Division of Continuing Education, University Press, a Copy Spot, the university's central warehouse, purchasing and travel offices."
      },
      {
        "name": "AUS - Mark Austin Technical & Engineering Bldg.",
        "code": "AUS",
        "lat":  43.815756,
        "lon": -111.784646,
        "img": "AUS-MarkAustinTechnicalEngineeringBldg.jpg",
        "info": "Department of Architecture & Construction, Department of Automotive Technology, Department of Computer Science and Engineering, and Department of Mechanical Engineering."
      },
      {
        "name": "BCTR - BYU-Idaho Center",
        "code": "BCTR",
        "lat":  43.818514,
        "lon": -111.785046,
        "img": "BCTR.jpg",
        "info": "The 435,000-square-foot building, containing a 15,000-seat auditorium and a multi-purpose area large enough for 10 full basketball courts, opened following a dedication on Dec. 17, 2010.",
        "link": "http://www2.byui.edu/BYUIdahoCenter/"
      },
      {
        "name": "BEN - Ezra Taft Benson Agricultural & Biological Sciences Bldg.",
        "code": "BEN",
        "lat":  43.815441,
        "lon": -111.783076,
        "img": "BEN-EzraTaftBensonAgriculturalBiologicalSciencesBldg.jpg",
        "info": "Department of Biology, Department of Horticulture, laboratories, greenhouses, horticulture outlet for studio flowers and plant sales, and the Wildlife Museum."
      },
      {
        "name": "BID - Biddulph Hall (men)",
        "code": "BID",
        "lat":  43.817054,
        "lon": -111.785123,
        "img": "BID-BiddulphHallmen.jpg",
        "info": "Men's housing."
      },
      {
        "name": "BRN - Barnes Hall (women)",
        "code": "BRN",
        "lat":  43.819171,
        "lon": -111.778768,
        "img": "BRN-BarnesHallwomen.jpg",
        "info": "Women's housing."
      },
      {
        "name": "CHP - Chapman Hall (men)",
        "code": "CHP",
        "lat":  43.818202,
        "lon":  -111.780259,
        "img": "CHP-ChapmanHallmen.jpg",
        "info": "Men's housing."
      },
      {
        "name": "CLK - John L. Clarke Bldg.",
        "code": "CLK",
        "lat":  43.820179,
        "lon":  -111.781751,
        "img": "CLK-JohnLClarkeBldg.jpg",
        "info": "Department of Health Science, Department of Interior Design, Department of Nursing, Department of Home and Family, preschool for the child development program, Testing Services."
      },
      {
        "name": "CML - Construction Management Lab",
        "code": "CML",
        "lat":  43.815239,
        "lon":  -111.787772,
        "info": "Lab area for Department of Department of Architecture and Construction."
      },
      {
        "name": "HIN - Gordon B. Hinckley Bldg.",
        "code": "HIN",
        "lat":  43.815841,
        "lon":  -111.779900,
        "img": "HIN-GordonBHinckleyBldg.jpg",
        "info": "Department of Teacher Education, faculty offices, Institute classes, and a stake center."
      },
      {
        "name": "HRT - John W. Hart Physical Education Bldg.",
        "code": "HRT",
        "lat":  43.819535,
        "lon": -111.785311,
        "img": "HRT-JohnWHartPhysicalEducationBldg.jpg",
        "info": "Department of Exercise & Sports Science, Main Gymnasium/Hart Auditorium, Auxiliary Gym, field house, swimming pool, racquetball courts, dressing rooms, physical fitness and wellness centers.",
        "link": "http://www2.byui.edu/HartBuilding/"
      },
      {
        "name": "HTG - Heating Plant",
        "code": "HTG",
        "lat":  43.817298,
        "lon":  -111.786003,
        "img": "HTG-HeatingPlant.jpg",
        "info": "BYU-Idaho support facility for heating and hot water."
      },
      {
        "name": "KER - Kerr Hall (women)",
        "code": "KER",
        "lat":  43.819258,
        "lon":  -111.779575,
        "img": "KER-KerrHallwomen.jpg",
        "info": "Women's housing."
      },
      {
        "name": "KIM - Spencer W. Kimball Student & Admin. Services Bldg.",
        "code": "KIM",
        "lat":  43.817071,
        "lon":  -111.781492,
        "img": "KIM-SpencerWKimballStudentAdminServicesBldg.jpg",
        "info": "Academic Administrative Services, Accounting Office, Admissions Office, Alumni Office, Career & Academic Advising, Cashier and Ticket Services, Dean of Students Office, Executive Offices, Financial Services, Housing Office, Human Resources, International Services, Internship and Career Services, Police, Registrar & Records Office, Scholarships Office, Student Honor Office, and University Relations Office."
      },
      {
        "name": "KRK - Oscar A. Kirkham Bldg.",
        "code": "KRK",
        "lat":  43.821114,
        "lon":  -111.781479,
        "img": "KRK-OscarAKirkhamBldg.jpg",
        "info": "Department of Dance, Kirkham Auditorium, Arena Theater, and ceramics and sculpture studios."
      },
      {
        "name": "LAM - Lamprecht Hall",
        "code": "LAM",
        "lat":  43.818234,
        "lon":  -111.779517,
        "img": "LAM-LamprechtHallwomen.jpg",
        "info": "Women's housing."
      },
      {
        "name": "MC  - Hyrum Manwaring Student Center",
        "code": "MC",
        "lat":  43.818356,
        "lon":  -111.782436,
        "img": "MC.jpg",
        "info": "Bookstore, Food Services and catering office, bowling alley, ballrooms, the ID Center, Lost and Found, and Scheduling Office."
      },
      {
        "name": "MCK - David O. McKay Library",
        "code": "MCK",
        "lat":  43.819310,
        "lon":  -111.783182,
        "img": "MCK-DavidOMcKayLibrary.jpg",
        "info": "Department of Academic Learning, book collection, e-book collection, periodicals, computers labs, Family History Center,  archives, a Copy Spot, a special exhibition area, instructional technology labs, equipment checkout and rental, and a self-serve recording room.",
        "link": "http://www.lib.byui.edu/"
      },
      {
        "name": "PER - Perkins Hall (women)",
        "code": "PER",
        "lat":  43.819253,
        "lon":  -111.780264,
        "img": "PER-PerkinsHallwomen.jpg",
        "info": "Women's housing."
      },
      {
        "name": "PPG - Physical Plant Grounds Construction & Sign Shop",
        "code": "PPG",
        "lat":  43.815277,
        "lon":  -111.786379,
        "img": "PPG-PhysicalPlantGroundsConstructionSignShop.jpg",
        "info": "BYU-Idaho support facility for landscaping, ground maintenance and signage."
      },
      {
        "name": "PPO - Physical Plant Office Bldg.",
        "code": "PPO",
        "img": "PPO.jpg",
        "lat": 43.81605433714605,
        "lon": -111.7853369234744,
        "info": "Physical Facilities Office and administrative offices for buildings and grounds, custodial, media services, telecommunications, safety, and support services."
      },
      {
        "name": "PPS - Physical Plant Shop Bldg.",
        "code": "PPS",
        "lat": 43.81594597634651,
        "lon": -111.7859443479993,
        "img": "PPS.jpg",
        "info": "Central shops for carpentry; electrical; fleet services; heating, ventilation, and air conditioning; locks and keys; and plumbing and mechanical operations."
      },
      {
        "name": "PWS - Plumbing & Welding Shop",
        "code": "PWS",
        "lat":  43.81526579736887,
        "lon":  -111.7853107728127,
        "info": "Central shop for plumbing and welding services."
      },
      {
        "name": "RGS - Radio and Graphic Services Bldg.",
        "code": "RGS",
        "lat":  43.81706519459516,
        "lon":  -111.7789434430949,
        "img": "RGS-RadioandGraphicServicesBldg.jpg",
        "info": "University Communications, KBYI FM 100.5, KBYR 91.5, Creative Services (graphic design and photography)."
      },
      {
        "name": "RIC - Ricks Hall (women)",
        "code": "RIC",
        "lat":  43.81812607978744,
        "lon":  -111.778914594058,
        "img": "RIC-RicksHallwomen.jpg",
        "info": "Women's housing."
      },
      {
        "name": "RIG - Rigby Hall (faculty offices)",
        "code": "RIG",
        "lat":  43.81696924342953,
        "lon":  -111.7841900066221,
        "img": "RIG-RigbyHallfacultyoffices.jpg",
        "info": "Faculty offices, Student Orientation Office."
      },
      {
        "name": "RKS - Thomas E. Ricks Bldg.",
        "code": "RKS",
        "lat":  43.81514466531412,
        "lon": -111.7812015011548,
        "img": "RKS-ThomasERicksBldg.jpg",
        "info": "Department of History, Geography and Political Science; Department of Mathematics; Department of Psychology; and Department of Sociology and Social Work."
      },
      {
        "name": "ROM - George S. Romney Bldg.",
        "code": "ROM",
        "lat":  43.81943529937006,
        "lon":  -111.7832273352486,
        "img": "ROM-GeorgeSRomneyBldg.jpg",
        "info": "Department of Chemistry, Department of Geology, Department of Recreation Leadership, Department of Physics, the planetarium, hall displays, and the Geology Museum."
      },
      {
        "name": "SHC - Student Health & Counseling Center",
        "code": "SHC",
        "lat":  43.81681618820919,
        "lon":  -111.7792542421602,
        "img": "SHC-StudentHealthCounselingCenter.jpg",
        "info": "Student Health Center (pharmacy, laboratory, x-ray and orthopedic services), Student Counseling Center (individual, group, and marital counseling).",
        "link": "http://www.byui.edu/health-center"
      },
      {
        "name": "SMI - Joseph Fielding Smith Bldg.",
        "code": "SMI",
        "lat": 43.81920193746524,
        "lon": -111.7815120835109,
        "img": "SMI-JosephFieldingSmithBldg.jpg",
        "info": "Department of Accounting, Department of Business Management, Department of Economics, Department of Computer Information Technology, Department of Foreign Languages & Literatures, Online Testing Center."
      },
      {
        "name": "SNO - Eliza R. Snow Performing Arts Center",
        "code": "SNO",
        "lat":  43.82040568861844,
        "lon":  -111.7834341454015,
        "img": "SNO-ElizaRSnowPerformingArtsCenter.jpg",
        "info": "Department of Music, Department of Theatre, Barrus Concert Hall, Recital Hall, Snow Drama Theater, Blackbox Theatre, and costume shop.",
        "link": "http://www2.byui.edu/music/"
      },
      {
        "name": "SPO - Jacob Spori Bldg.",
        "code": "SPO",
        "lat": 43.82013049760194,
        "lon": -111.7814491412516,
        "img": "SPO-JacobSporiBldg.jpg",
        "info": "Department of Communication, Department of Art, art galleries, and artifacts from original Spori Building."
      },
      {
        "name": "STA - BYU-Idaho Stadium",
        "code": "STA",
        "lat": 43.8203142379387,
        "lon": -111.7858582214964,
        "img": "STA-BYU-IdahoStadium.jpg",
        "info": "Location of the Outdoor Resource Center. Equipment rentals and retail sales."
      },
      {
        "name": "TAY - John Taylor Bldg.",
        "code": "TAY",
        "img": "TAY.jpg",
        "lat":  43.81705797643297,
        "lon":  -111.7811963030408,
        "info": "Department of Religious Education, Department of Humanities & Philosophy, campus stake center, student commons area."
      },
      {
        "name": "TRK - BYU-I Track & Field",
        "code": "TRK",
        "lat": 43.82062309752545,
        "lon": -111.7844109782628,
        "img": "BYU-IdahoTrack.jpg",
        "info": "A horticulture research area, picnic structure, reception area, test gardens, fruit tree orchard, flowerbeds, and a native garden."
      },
      {
        "name": "TRG - Thomas E. Ricks Memorial Gardens",
        "code": "TRG",
        "lat": 43.81582205080509,
        "lon": -111.7815419421354,
        "img": "TRG-ThomasERicksMemorialGardens.jpg",
        "info": "A horticulture research area, picnic structure, reception area, test gardens, fruit tree orchard, flowerbeds, and a native garden."
      },
      {
        "name": "UV  - University Village (families)",
        "code": "UV",
        "img": "University-Village.jpg",
        "lat": 43.81043018645631,
        "lon": -111.7880177484073,
        "info": "Family housing."
      },
      {
        "name": "VOS - Vehicle Operations Service Station",
        "code": "VOS",
        "lat": 43.81528245659366,
        "lon": -111.7859468775369,
        "info": "Support area for the university's fleet services."
      },
      {
        "name": "University Stake Center",
        "code": "UniversityStakeCenter",
        "lat": 43.81091259491949,
        "lon": -111.7810747356341,
        "info": "Meetinghouse for The Church of Jesus Christ of Latter-day Saints."
      },
      {
        "name": "Rexburg Temple",
        "code": "RexburgTemple",
        "lat": 43.810832416805,
        "lon": -111.7784921749187,
        "img": "Rexburg-Temple.jpg",
        "info": "Owned and operated by The Church of Jesus Christ of Latter-day Saints.",
        "link": "http://www.lds.org/church/temples/rexburg-idaho?lang=eng"
      }
    ],
    "parking": [
      {
        "name":         "City Resident Street Parking",
        "contains":     "Street residential areas",
        "borderColor":  "#32e21b",
        "fillColor":    "#98f08d"
      },
      {
        "name":         "City Street Parking",
        "contains":     "Street Munipical Areas",
        "borderColor":  "#fd25a2",
        "fillColor":    "#fe92d0"
      },
      {
        "name":         "Faculty & Staff Parking",
        "contains":     "Parking for Faculty & Staff",
        "borderColor":  "#f51515",
        "fillColor":    "#fa8a8a"
      },
      {
        "name":         "Student North Pass",
        "contains":     "Parking for students with a North Parking Pass",
        "borderColor":  "#1652de",
        "fillColor":    "#8aa8ee"
      },
      {
        "name":         "Student South Pass",
        "contains":     "Parking for students with a South Parking Pass",
        "borderColor":  "#f5ff02",
        "fillColor":    "#faff80"
      },
      {
        "name":         "West Campus Drive",
        "contains":     "Parking on West Campus Drive",
        "borderColor":  "#2aa1ef",
        "fillColor":    "#94d0f7"
      },
      {
        "name":         "Free Parking Lot",
        "contains":     "Free parking for all campus passes and F pass holders",
        "borderColor":  "#bb7700",
        "fillColor":    "#a97d77"
      }
    ],
    "foodanddining": [
      {
        "name": "Café Kimball",
        "code": "CAFEKIMBALL",
        "lat":  43.81663558951467,
        "lon": -111.7814087838211,
        "img": "Cafe-Kimball.jpg",
        "info": "1st Floor of the Kimball building on the South end of the commons. <br/><br/><strong>Hours of Operation:</strong> <br/>Monday through Friday: 10:00 a.m. - 1:30 p.m.",
        "link": "http://www.byui.edu/food-services/locations-and-hours/cafe-kimball"
      },
      {
        "name": "Café McKay",
        "code": "CAFEMCKAY",
        "lat":  43.81909299926238,
        "lon": -111.7830128352975,
        "img": "CafeMcKay.jpg",
        "info": "1st Floor of the McKay Library.<br/><br/><strong>Hours of Operation:</strong> <br/>Monday through Friday: 8:30 a.m. - 3:15 p.m.<br/>*Closed Tuesdays for devotional at 1:45 p.m.",
        "link": "http://www.byui.edu/food-services/locations-and-hours/cafe-mckay"
      },
      {
        "name": "Caliente",
        "code": "CALIENTE",
        "img": "caliente.jpg",
        "lat":  43.81852167946543,
        "lon": -111.7824973903352,
        "info": "Located on the 2nd floor of the MC.<br/><br/><strong>Hours of Operation:</strong><br/>Monday through Friday: 11:00 a.m. - 6:00 p.m.<br/>*Closed for devotional from 2:00 p.m. to 3:00 p.m. every Tuesday.",
        "link": "http://www.byui.edu/food-services/locations-and-hours/caliente"
      },
      {
        "name": "Chef's Point",
        "code": "CHEFSPOINT",
        "lat":  43.81857137498275,
        "lon": -111.7824269019565,
        "img": "Chefs-Point.jpg",
        "info": "Located on the 2nd floor of the MC.<br/><strong>Hours of Operation:</strong><br/>Monday through Saturday: 11:00 a.m. - 2:00 p.m. and 4:00 p.m. - 6:00 p.m",
        "link": "http://www.byui.edu/food-services/locations-and-hours/chefs-point"
      },
      {
        "name": "Far East Fusion",
        "code": "FAREASTFUSION",
        "lat":  43.81854131350695,
        "lon": -111.7824559091124,
        "img": "Far-east-fusion.jpg",
        "info": "Located on the 2nd floor of the MC. <br/><br/><strong>Hours of Operation:</strong> <br/>Monday through Friday: 11:00 a.m. - 6:00 p.m. <br/>*Closed for devotional from 2:00 p.m. to 3:00 p.m. every Tuesday.",
        "link": "http://www.byui.edu/food-services/locations-and-hours/far-east-fusion"
      },
      {
        "name": "Freshëns",
        "code": "FRESHENS",
        "lat":  43.81857636264045,
        "lon": -111.7826563925517,
        "img": "Freshens.jpg",
        "info": "<strong>About Freshëns:</strong> <br/>Freshëns sells smoothies, frozen treats, doughnuts, bagels, muffins, cookies and more! <br/>Located on the 1st floor of the MC <br/><br/><strong>Hours of Operation</strong> <br/>7:00 a.m.-6:00 p.m., Monday-Friday",
        "link": "http://www.byui.edu/food-services/locations-and-hours/freshens"
      },
      {
        "name": "Garden View Café",
        "code": "GARDENVIEWCAFE",
        "lat":   43.815024,
        "lon":  -111.780930,
        "info": "Located on the 1st floor of the Ricks Building <br/><br/><strong>Hours of Operation:</strong><br/>Monday through Friday: 8:30 a.m. - 2:30 p.m.<br/>*Closes for Devotional at 2:00 p.m. every Tuesday.",
        "link": "http://www.byui.edu/food-services/locations-and-hours/garden-view-cafe"
      },
      {
        "name": "Grand Teton Grill",
        "code": "GRANDTETONGRILL",
        "img": "Teton-Grill.jpg",
        "lat":  43.81862574632019,
        "lon": -111.7824118292022,
        "info": "Located on the 2nd floor of the MC<br/><br/><strong>Hours of Operation: </strong><br/>Monday through Friday: 8:30 a.m. - 6:00 p.m., Saturday:  11:00 a.m. - 6:00 p.m.<br/>*Closed for Devotional from 2:00 p.m. to 3:00 p.m. every Tuesday.",
        "link": "http://www.byui.edu/food-services/locations-and-hours/grand-teton-grill"
      },
      {
        "name": "Harvest Hills Bakery",
        "code": "HARVESTHILLSBAKERY",
        "lat":  43.81851277918786,
        "lon": -111.7826159175001,
        "img": "Harvest-Hill-Bakery.jpg",
        "info": "Located on the 2nd  floor of the MC<br/><br/><strong>Hours of Operation</strong><br/>Monday through Friday: 8:30 a.m. - 2:00 p.m.<br/>*Closed for Devotional from 2:00 p.m. to 3:00 p.m. every Tuesday.",
        "link": "http://www.byui.edu/food-services/locations-and-hours/harvest-hills-bakery"
      },
      {
        "name": "Henry's Fork BBQ",
        "code": "HENRYSFORKBBQ",
        "lat":  43.81853149418591,
        "lon": -111.7825524476314,
        "info": "Stacks and wraps food, located on the 2nd floor of the MC<br/><br/><strong>Hours of Operation:</strong><br/>Monday through Friday: 11:00 a.m. - 2:00 p.m.<br/>*Closed for devotional from 2:00 p.m. to 3:00 p.m. every Tuesday.",
        "link": "http://www.byui.edu/food-services/locations-and-hours/henrys-fork-bbq"
      },
      {
        "name": "MC Market",
        "code": "MCMARKET",
        "img": "McMarket.jpg",
        "lat":  43.81861464827622,
        "lon": -111.7826526017039,
        "info": "Located on the 1st floor of the MC<br/><br/><strong>Hours of Operation:</strong><br/>Monday-Friday: 9:00 am - 7:00 pm<br/>Saturdays: 10:00 am - 7:00pm<br/>(Closed for Devotional on Tuesdays)<br/>Sunday: Closed",
        "link": "http://www.byui.edu/food-services/locations-and-hours/mc-market"
      },
      {
        "name": "Salad Bar",
        "code": "SALADBAR",
        "img": "Salad.jpg",
        "lat":  43.81863461978169,
        "lon": -111.7824785411088,
        "info": "Located on the 2nd  floor of the MC<br/><br/><strong>Hours of Operation:</strong><br/>Monday through Friday: 11:00 a.m. - 6:00 p.m.<br/>*Closed for Devotional from 2:00 p.m. to 3:00 p.m. every Tuesday.",
        "link": "http://www.byui.edu/food-services/locations-and-hours/salad-bar"
      },
      {
        "name": "Stacks and Wraps",
        "code": "STACKSANDWRAPS",
        "img": "Stacks-and-Wraps.jpg",
        "lat":  43.81865148142322,
        "lon": -111.7824055117548,
        "info": "Located on the 2nd  floor of the MC<br/><br/><strong>Hours of Operation</strong><br/>Monday through Saturday: 11:00 a.m. - 6:00 p.m.<br/>*Closed for Devotional from 2:00 p.m. to 3:00 p.m. every Tuesday.",
        "link": "http://www.byui.edu/food-services/locations-and-hours/stacks-and-wraps"
      },
      {
        "name": "Tuscan Valley",
        "code": "TUSCANVALLEY",
        "lat":  43.81868128717473,
        "lon": -111.7823956951955,
        "img": "Tuscan-Valley.jpg",
        "info": "Located on the 2nd  floor of the MC<br/><br/><strong>Hours of Operation:</strong>Monday through Friday: 10:30 a.m. - 6:00 p.m.<br/>*Closed for Devotional from 2:00 p.m. to 3:00 p.m. every Tuesday.",
        "link": "http://www.byui.edu/food-services/locations-and-hours/tuscan-valley"
      }
    ],
    "vending": [
      {
        "name": "Combo - BRN",
        "code": "1",
        "lat":  43.81903274177699,
        "lon": -111.778850821976,
        "info": "2nd floor lounge, above laundry room.<br/>Combo Machine."
      },
      {
        "name": "Combo - KER",
        "code": "2",
        "lat":  43.81907857414526,
        "lon": -111.77954226089,
        "info": "1st floor laundry room.<br/>Combo."
      },
      {
        "name": "Combo - LAM",
        "code": "2",
        "lat":  43.81803886557335,
        "lon": -111.7795172461913,
        "info": "1st floor laundry room.<br/>Combo."
      },
      {
        "name": "Combo - PER",
        "code": "2",
        "lat":  43.81906110267827,
        "lon": -111.7803649885445,
        "info": "1st floor laundry room.<br/>Combo."
      },
      {
        "name": "Combo - RIC",
        "code": "2",
        "lat":  43.81794189084471,
        "lon": -111.7788253793899,
        "info": "1st floor laundry room.<br/>Combo. Nearby machines provide food, snacks, drinks and frozen goods."
      },
      {
        "name": "Drinks - BID",
        "code": "3",
        "lat":  43.81708528609551,
        "lon": -111.7851676792425,
        "info": "1st floor lounge.<br/>Drinks. Other machines nearby with food and snacks."
      },
      {
        "name": "Drinks - CHP",
        "code": "4",
        "lat":  43.81800009170572,
        "lon": -111.7803323290123,
        "info": "1st floor laundry room.<br/>Drinks. Nearby machines provide food and snacks."
      },
      {
        "name": "Drinks - CLK",
        "code": "5",
        "lat":  43.820303,
        "lon": -111.781949,
        "info": "1st floor entryway.<br/>Drinks. Nearby machines provide snacks and food."
      },
      {
        "name": "Drinks - KIM",
        "code": "6",
        "lat":  43.81693401824815,
        "lon": -111.7813540546474,
        "info": "1st floor entryway.<br/>Drinks. Nearby machines provide snacks and food."
      },
      {
        "name": "Drinks - MC",
        "code": "6",
        "lat":  43.81821004565384,
        "lon": -111.7828223737763,
        "info": "1st floor lounge.<br/>Drinks. Nearby machines provide food and snacks."
      },
      {
        "name": "Drinks - RIC",
        "code": "6",
        "lat":  43.81793549175497,
        "lon": -111.778812820225,
        "info": "1st floor laundry room.<br/>Drinks. Nearby machines provide food, snacks, and frozen goods."
      },
      {
        "name": "Food - BID",
        "code": "7",
        "lat":  43.81709848501499,
        "lon": -111.7851941283088,
        "info": "1st floor entryway.<br/>Drinks. Nearby machines provide snacks and food."
      },
      {
        "name": "Food - BCTR",
        "code": "8",
        "lat":  43.81801134364651,
        "lon": -111.7848386836669,
        "info": "1st floor (court level), side room.<br/>Food. Other machines nearby include Snacks."
      },
      {
        "name": "Food - CHP",
        "code": "9",
        "lat":  43.81797618830873,
        "lon": -111.780358984969,
        "info": "1st floor laundry room.<br/>Food. Nearby machines include snacks and drinks."
      },
      {
        "name": "Food - CLK",
        "code": "10",
        "lat":  43.82031095304359,
        "lon": -111.7819731471874,
        "info": "1st floor entryway.<br/>Food. Nearby machines include snacks and drinks."
      },
      {
        "name": "Food - HIN",
        "code": "11",
        "lat":  43.81611,
        "lon": -111.779708,
        "info": "2nd floor, gym level, adjoining North-East entryway.<br/>Food. Nearby machine serves snacks."
      },
      {
        "name": "Food - KIM",
        "code": "12",
        "lat":  43.81693290566433,
        "lon": -111.781373104311,
        "info": "1st floor entryway.<br/>Food. Nearby machines provide snacks and drinks."
      },
      {
        "name": "Food - MC",
        "code": "12",
        "lat":  43.818233,
        "lon": -111.782822,
        "info": "1st floor lounge.<br/>Food. Nearby machines provide snacks and drinks."
      },
      {
        "name": "Food - MCK",
        "code": "12",
        "lat":  43.819066,
        "lon": -111.783145,
        "info": "1st floor lobby.<br/>Food. Nearby machines provide snacks."
      },
      {
        "name": "Food - RIC",
        "code": "12",
        "lat":  43.81794421185616,
        "lon": -111.7788435864017,
        "info": "1st floor laundry room.<br/>Food. Nearby machines provide frozen goods, snacks, and drinks."
      },
      {
        "name": "Food - RIG",
        "code": "12",
        "lat":  43.81696482697952,
        "lon": -111.7844262965071,
        "info": "1st floor lounge<br/>Food. Other machine nearby with snacks."
      },
      {
        "name": "Food - ROM",
        "code": "12",
        "lat":  43.82000767445552,
        "lon": -111.7832005928064,
        "info": "Stairway landing between 1st and 2nd floors.<br/>Food. Other machine nearby with Snacks."
      },
      {
        "name": "Food - SMI",
        "code": "12",
        "lat":  43.8192314306082,
        "lon": -111.7816695208319,
        "info": "Entryway landing between 1st and 2nd floors.<br/>Food. Other machine nearby with Snacks."
      },
      {
        "name": "Food - SPO",
        "code": "12",
        "lat":  43.82083022215371,
        "lon": -111.7823424255988,
        "info": "2nd floor hallway.<br/>Food. Other machine nearby with Snacks."
      },
      {
        "name": "Food - TAY",
        "code": "12",
        "lat":  43.81672922830764,
        "lon": -111.7823378735806,
        "info": "1st floor, off of hallway and commons.<br/>Food. Other machine nearby with Snacks."
      },
      {
        "name": "Food - HRT",
        "code": "12",
        "lat":  43.81946877697342,
        "lon": -111.7850283205154,
        "info": "2nd floor, at crossing of two highways.<br/>Food."
      },
      {
        "name": "Snacks - AGB",
        "code": "13",
        "lat":  43.81306032643038,
        "lon": -111.7833001800025,
        "info": "Main floor lobby area.<br/>Two snack machines."
      },
      {
        "name": "Snacks - BCTR",
        "code": "14",
        "lat":  43.818022,
        "lon": -111.784842,
        "info": "1st floor (court level), side room.<br/>Snacks. Other machine nearby includes Food."
      },
      {
        "name": "Snacks - BID",
        "code": "15",
        "lat":  43.8170414380551,
        "lon": -111.7852682365325,
        "info": "1st floor lounge.<br/>Snacks. Other machines nearby with food, drinks, and snacks."
      },
      {
        "name": "Snacks - BEN",
        "code": "16",
        "lat":  43.815478,
        "lon": -111.783254,
        "info": "First floor hallway, near the central stairs.<br/>Snacks."
      },
      {
        "name": "Snacks - CHP",
        "code": "17",
        "lat":  43.81799551693868,
        "lon": -111.7803133722136,
        "info": "1st floor laundry room.<br/>Snacks. Nearby machines include food and drinks."
      },
      {
        "name": "Snacks - CLK",
        "code": "18",
        "lat":  43.820355,
        "lon": -111.782017,
        "info": "1st floor entryway.<br/>Snacks. Nearby machines provide food and drinks."
      },
      {
        "name": "Snacks - HIN",
        "code": "19",
        "lat":  43.816101,
        "lon": -111.779706,
        "info": "2nd floor, gym level, adjoining North-East entryway.<br/>Snacks. Nearby machine serves food."
      },
      {
        "name": "Snacks - KIM",
        "code": "20",
        "lat":  43.81693284853189,
        "lon": -111.7813921714127,
        "info": "1st floor entryway.<br/>Snacks. Nearby machines provide food and drinks."
      },
      {
        "name": "Snacks - KRK",
        "code": "21",
        "lat":  43.820973,
        "lon": -111.781728,
        "info": "2nd floor, ticketing lobby.<br/>Snacks."
      },
      {
        "name": "Snacks - MC",
        "code": "22",
        "lat":  43.818223,
        "lon": -111.78282,
        "info": "1st floor lounge.<br/>Snacks. Nearby machines provide food and drinks."
      },
      {
        "name": "Snacks - MCK",
        "code": "22",
        "lat":  43.81906731952363,
        "lon": -111.7831444841312,
        "info": "1st floor lobby.<br/>Snacks. Nearby machines provide food."
      },
      {
        "name": "Snacks - RIC",
        "code": "23",
        "lat":  43.81794996200994,
        "lon": -111.7788183873172,
        "info": "1st floor laundry room.<br/>Snacks. Nearby machines provide food, frozen goods, and drinks."
      },
      {
        "name": "Snacks - RIG",
        "code": "24",
        "lat":  43.81695754638777,
        "lon": -111.7844135810928,
        "info": "1st floor lounge<br/>Snacks. Other machine nearby with Food."
      },
      {
        "name": "Snacks - ROM",
        "code": "25",
        "lat":  43.82001386792193,
        "lon": -111.7832144343634,
        "info": "Stairway landing between 1st and 2nd floors.<br/>Snacks. Other machine nearby with Food."
      },
      {
        "name": "Snacks - SMI",
        "code": "25",
        "lat":  43.81924206309931,
        "lon": -111.7816667901026,
        "info": "Entryway landing between 1st and 2nd floors.<br/>Snacks. Other machine nearby with Food."
      },
      {
        "name": "Snacks - SPO",
        "code": "26",
        "lat":  43.82084258876398,
        "lon": -111.7823436128672,
        "info": "2nd floor hallway.<br/>Snacks. Other machine nearby with Food."
      },
      {
        "name": "Snacks - TAY",
        "code": "27",
        "lat":  43.8167338906422,
        "lon": -111.7823379398784,
        "info": "1st floor, off of hallway and commons.<br/>Snacks. Other machine nearby with food."
      },
      {
        "name": "Snacks - HRT",
        "code": "28",
        "lat":  43.81976078691972,
        "lon": -111.785793676725,
        "info": "1st floor, in entryway stairwell.<br/>Snacks. Two machines."
      },
      {
        "name": "Frozen - RIC",
        "code": "29",
        "lat":  43.81795481405909,
        "lon": -111.778829976755,
        "info": "1st floor laundry room.<br/>Frozen. Nearby machines provide food, snacks, and drinks."
      }
    ],
    "playfields": [
      {
        "name": "4 Plex - Field 1",
        "code": "1",
        "lat":  43.81054127708088,
        "lon": -111.7846084967424,
        "img": "4plex1-2Fields.jpg",
        "info": "7th South Activity Fields<br/>Artificial field turf. Muti-use full soccer and softball field. Recreational area often scheduled for Student Activities."
      },
      {
        "name": "4 Plex - Field 2",
        "code": "2",
        "lat":  43.80933478831204,
        "lon": -111.7846834569128,
        "img": "4plex1-2Fields.jpg",
        "info": "7th South Activity Fields<br/>Artificial field turf. Muti-use full soccer and softball field. Recreational area often scheduled for Student Activities."
      },
      {
        "name": "4 Plex - Field 3",
        "code": "3",
        "lat":  43.81071798665069,
        "lon": -111.7858519476696,
        "img": "4Plex3-4Fields.jpg",
        "info": "7th South Activity Fields <br/>Grass muti-use fields. Recreational area often scheduled for Student Activities."
      },
      {
        "name": "4 Plex - Field 4",
        "code": "4",
        "lat":  43.81003608579535,
        "lon": -111.7862319352064,
        "img": "4Plex3-4Fields.jpg",
        "info": "7th South Activity Fields<br/>Grass muti-use fields. Recreational area often scheduled for Student Activities."
      },
      {
        "name": "Baseball Diamond",
        "code": "8",
        "lat":  43.81399306804928,
        "lon": -111.7844636070457,
        "info": "Recreational area often scheduled for Student Activities."
      },
      {
        "name": "Stadium Track and Field",
        "code": "9",
        "lat":  43.82096963524247,
        "lon": -111.7852831224419,
        "info": "Artificial field turf muti-use full track, football and soccer field. Recreational area often scheduled for Student Activities."
      },
      {
        "name": "Tennis Courts - West",
        "code": "10",
        "lat":  43.81936445832934,
        "lon": -111.7871018896488,
        "info": "Recreational area often scheduled for Student Activities.<"
      },
      {
        "name": "Tennis Courts - East",
        "code": "11",
        "lat":  43.81712830137598,
        "lon": -111.7786622733956,
        "info": "Recreational area often scheduled for Student Activities."
      },
      {
        "name": "Upper Playfields - North",
        "code": "5",
        "lat":  43.81281083420959,
        "lon": -111.7854493760957,
        "info": "Grass fields used for flag football and ultimate frisbee. Recreational area often scheduled for Student Activities."
      },
      {
        "name": "Upper Playfields - Middle",
        "code": "6",
        "lat":  43.81245500730314,
        "lon": -111.7854668088413,
        "info": "Grass fields used for flag football and ultimate frisbee. Recreational area often scheduled for Student Activities."
      },
      {
        "name": "Upper Playfields - South",
        "code": "7",
        "lat":  43.81204689742254,
        "lon": -111.785439936203,
        "info": "Grass fields used for flag football and ultimate frisbee. Recreational area often scheduled for Student Activities."
      }
    ],
    "webcams": [
      {
        "name": "Copy Spot",
        "code": "COPYSPOT",
        "lat":  43.819730,
        "lon": -111.782326,
        "img": "http://www2.byui.edu/images/copyspot.asp",
        "info": "The Copy Spot is a place to print, bind, laminate and make copies.",
        "link": "http://www2.byui.edu/CopySpot/"
      },
      {
        "name": "Thomas E. Ricks Gardens",
        "code": "RICKSGARDENS",
        "lat":  43.815641,
        "lon": -111.780212,
        "img": "http://www2.byui.edu/images/gardens.asp",
        "info": "The Thomas E. Ricks Gardens are located between the Thomas E. Ricks building and the Taylor Chapel (top right). They are named for the founder of the school and provide a peaceful atmosphere for students to relax between classes. This camera looks west into the gardens from the Gordon B. Hinckley Building. The gardens were dedicated on February 18, 2005 by Elder David A. Bednar, former President of BYU-Idaho. The gardens are an extension of the horticulture program.",
        "link": "http://www2.byui.edu/Horticulture/norman%20work/gardens.htm"
      },
      {
        "name": "Rexburg Temple",
        "code": "REXBURGTEMPLE",
        "lat":  43.814627,
        "lon": -111.781345,
        "img": "http://www2.byui.edu/images/temple.asp",
        "info": "The LDS Temple in Rexburg.",
        "link": "http://www.byui.edu/galleries/rexburg-temple"
      },
      {
        "name": "Smith Quad",
        "code": "SMITHQUAD",
        "lat":   43.819253,
        "lon": -111.781667,
        "img": "http://www2.byui.edu/images/smithQuad.asp",
        "info": "The Smith Quad."
      },
      {
        "name": "Testing Center",
        "code": "TESTINGCENTER",
        "lat":  43.818364,
        "lon": -111.783068,
        "img": "http://www2.byui.edu/images/testingCenter.asp",
        "info": "The Testing Center",
        "link": "http://testing.byui.edu/"
      },
      {
        "name": "Rexburg Weather",
        "code": "REXBURGWEATHER",
        "lat":  43.814822,
        "lon": -111.781840,
        "img": "http://www2.byui.edu/images/weather.asp",
        "info": "A webcam that shows the current Rexburg Weather"
      }
    ]
  }
}